name,distance,products,certification,lat,lon
Green Acres Farm,15,Vegetables,Organic,40.7128,-74.0060
Sunny Valley Dairy,25,Dairy,Conventional,40.7589,-73.9851
River Farm,45,"Meat, Eggs",Regenerative,40.6892,-74.0445
Highland Ranch,30,Fruits,Organic,40.7281,-73.9467
Mountain View Farm,20,"Vegetables, Fruits",Organic,40.7431,-73.9712
Valley Fresh Produce,35,"Vegetables, Herbs",Conventional,40.7023,-74.0182
Meadowbrook Dairy,28,Dairy,Organic,40.7589,-73.9951
Riverside Poultry,42,Eggs,Conventional,40.6992,-74.0345
